var medicalCentresData = [{"centreType":"Clinics","area":"Jerusalem","name":"Bikur Rofeh","address":"Beit Hadfus 22, Jerusalem","openingHours":["Sun: 17:00 - 01:00","Mon- Thur: 18:30 - 01:00","Fri, holiday eve: 09:00 - 14:00","Sat, holidays: 17:30 - 01:00"],"phoneNumbers":[{"phoneType":null,"number":"077-554-0943","extension":null}],"location":{"lat":31.7862594,"lon":35.1856493}},{"centreType":"Clinics","area":"Jerusalem","name":"Bikur Rofeh","address":"Klermon Gano 1, Jerusalem","openingHours":["Sun - Thur: 19:00 - 23:00","Fri, Sat: 16:00 - 23:00"],"phoneNumbers":[{"phoneType":null,"number":"02-589-3845","extension":null}],"location":{"lat":31.768319,"lon":35.21371}},{"centreType":"Clinics","area":"Jerusalem","name":"Terem","address":"Yirmiyahu 80, Jerusalem","openingHours":["24 hour service"],"phoneNumbers":[{"phoneType":null,"number":"02-509-3333","extension":null}],"location":{"lat":31.7904949,"lon":35.2006218}},{"centreType":"Clinics","area":"Jerusalem","name":"Terem","address":"Daniel Yanovsky 6, Jerusalem","openingHours":["Sun - Sat : 09:00 - 24:00"],"phoneNumbers":[{"phoneType":null,"number":"1-599-520-520, #2","extension":null}],"location":{"lat":31.768319,"lon":35.21371}},{"centreType":"Clinics","area":"Jerusalem","name":"Terem","address":"Ha'neviim 74, Jerusalem","openingHours":["24 hour service"],"phoneNumbers":[{"phoneType":null,"number":"1-599-520-520 #6","extension":null}],"location":{"lat":31.7845635,"lon":35.2181761}},{"centreType":"Clinics","area":"Jerusalem","name":"Wolfson","address":"Diskin 9, Jerusalem","openingHours":["Sun - Thur: 08:00 - 20:00","Fri: 08:00 - 13:00"],"phoneNumbers":[{"phoneType":null,"number":"02-5636265","extension":null}],"location":{"lat":31.7763795,"lon":35.2105052}},{"centreType":"Clinics","area":"Jerusalem","name":"Terem","address":"Sderot Yigal Alon 1, Beit Shemesh","openingHours":["Sun - Thur: 14:00 - 06:00","Fri: 10:00 - 06:00","Sat: 08:00 - 06:00"],"phoneNumbers":[{"phoneType":null,"number":"1-599-520-520, #4","extension":null}],"location":{"lat":31.7562381,"lon":34.9869235}},{"centreType":"Clinics","area":"Jerusalem","name":"Efrat Medical Center","address":"","openingHours":[""],"phoneNumbers":[{"phoneType":null,"number":"02-993-3020","extension":null}],"location":{"lat":31.046051,"lon":34.851612}},{"centreType":"Doctors","area":"Jerusalem","name":"Dr. Paul Sleiter","address":"47/20 Arzei Habira","openingHours":["Call for appointment"],"phoneNumbers":[{"phoneType":null,"number":"02-625-1183","extension":null}],"location":{"lat":31.7914812,"lon":35.2253628}},{"centreType":"Doctors","area":"Jerusalem","name":"Dr. Tessa Manoim","address":"Yad Harutzim 18 Talpiot, Jerusalem","openingHours":["Call for appointment"],"phoneNumbers":[{"phoneType":null,"number":"02-672-5696","extension":null}],"location":{"lat":31.7510783,"lon":35.2159998}},{"centreType":"Doctors","area":"Jerusalem","name":"Dr. Jeffrey Greenfield","address":"Gedera 4, Romema, Jerusalem","openingHours":["Call for appointment"],"phoneNumbers":[{"phoneType":null,"number":"02-537-1897","extension":null}],"location":{"lat":31.7946595,"lon":35.1990278}},{"centreType":"Doctors","area":"Jerusalem","name":"Dr. Avraham Auerbach, eye doctor","address":"Diskin 9, Jerusalem","openingHours":["Call for appointment"],"phoneNumbers":[{"phoneType":null,"number":"02-563-8728","extension":null}],"location":{"lat":31.7763795,"lon":35.2105052}},{"centreType":"Doctors","area":"Jerusalem","name":"Dr. Jackie Glassman, Dentist","address":"Elcharizi 18, Rechavya, Jerusalem","openingHours":["Call for appointment"],"phoneNumbers":[{"phoneType":null,"number":"02-566-9061","extension":null}],"location":{"lat":31.7761351,"lon":35.2152119}},{"centreType":"Doctors","area":"Jerusalem","name":"Dr. Barry Dinner","address":"Corner of Ayalon and Kishon, Ramat Beit Shemesh","openingHours":["Call for appointment"],"phoneNumbers":[{"phoneType":null,"number":"02-995-3330","extension":null}],"location":{"lat":31.71123,"lon":34.990791}},{"centreType":"Pharmacies","area":"Jerusalem","name":"Pharma - C","address":"Diskin 9, Jerusalem","openingHours":[""],"phoneNumbers":[{"phoneType":null,"number":"02-561-2361","extension":null},{"phoneType":null,"number":"02-537-1050","extension":null}],"location":{"lat":31.7763795,"lon":35.2105052}},{"centreType":"Pharmacies","area":"Jerusalem","name":"Ramat Beit Shemesh","address":"Nachal Dolev 82, Beit Shemesh","openingHours":[""],"phoneNumbers":[{"phoneType":null,"number":"02-999-9777","extension":null}],"location":{"lat":31.714435,"lon":34.9993446}},{"centreType":"laboratories","area":"Jerusalem","name":"Ofek Labs","address":"Diskin 9, Jerusalem","openingHours":[""],"phoneNumbers":[{"phoneType":null,"number":"02-561-8732","extension":null}],"location":{"lat":31.7763795,"lon":35.2105052}},{"centreType":"laboratories","area":"Jerusalem","name":"Rambam labs","address":"Hillel 16, Jerusalem","openingHours":[""],"phoneNumbers":[{"phoneType":null,"number":"","extension":null}],"location":{"lat":31.7802542,"lon":35.2176059}},{"centreType":"Clinics","area":"Tel-Aviv","name":"Bikur Rofeh","address":"Sokolov 1, Hertzelia","openingHours":["Sun, Tue, Thur: 19:00 - 23:00","Mon, Wed: 19:00 - 24:00","Fri, holiday eve: 17:00 - 24:00","Sat, holidays: 09:00 - 24:00"],"phoneNumbers":[{"phoneType":null,"number":"09-954-1647","extension":null}],"location":{"lat":32.1666491,"lon":34.8389542}},{"centreType":"Clinics","area":"Tel-Aviv","name":"Bikur Rofeh","address":"Tcharnihovski 16, Kfar saba","openingHours":["Sun - Thur: 19:00 - 23:00","Fri, holiday eve: 16:00 - 24:00","Sat, holidays: 10:00 - 14:00","18:00 - 24:00"],"phoneNumbers":[{"phoneType":null,"number":"09-7455554","extension":null}],"location":{"lat":32.1767071,"lon":34.8930357}},{"centreType":"Clinics","area":"Tel-Aviv","name":"Bikur Rofeh","address":"Sderot Ha'tzionut, Lod","openingHours":["Sun - Thur: 19:00 - 23:00","Fri, hoiday eve: 18:00 - 23:00","Sat, holidays: 10:00 - 14:00","18:00 - 24:00"],"phoneNumbers":[{"phoneType":null,"number":"09-920-8507","extension":null}],"location":{"lat":31.52269399999999,"lon":34.595581}},{"centreType":"Clinics","area":"Tel-Aviv","name":"Bikur Rofeh","address":"Lazarov 33 Rishon le'tzion","openingHours":["Sun: 17:00 - 01:00","Mon - Thur : 18:30 - 01:00","Fri, holiday eve: 09:00 - 14:00","Sat, holidays: 17:30 - 01:00"],"phoneNumbers":[{"phoneType":null,"number":"03-952-4607","extension":null}],"location":{"lat":31.9914416,"lon":34.7751995}},{"centreType":"Clinics","area":"Tel-Aviv","name":"Bikur Rofeh","address":"ha'arbaa 20 Tel Aviv","openingHours":["Sun- Thur: 19:00- 24:00","Fri, hoiday eve: 16:00 - 24:00","Sat, holidays: 9:00 - 24:00"],"phoneNumbers":[{"phoneType":null,"number":"03-624-2371","extension":null}],"location":{"lat":32.0703336,"lon":34.7854475}},{"centreType":"Clinics","area":"Tel-Aviv","name":"Bikur Rofeh","address":"Hayetzira 6, Netanya","openingHours":["Sun: 17:00 - 01:00","Mon- Thur: 18:30 - 01:00","Fri, hoiday eve: 09:00 - 14:00","19:30 - 22:30","Sat, holidays: 09:30 - 12:30","17:30 - 01:00"],"phoneNumbers":[{"phoneType":null,"number":"09-8857022","extension":null}],"location":{"lat":32.2756846,"lon":34.8587568}},{"centreType":"Clinics","area":"Tel-Aviv","name":"Bikur rofe","address":"Yigael Yadin 41, Modiin","openingHours":["Sun: 17:00 - 24:00","Mon- Thur: 18:30 - 23:00","Fri, hoiday eve: 09:00 - 14:00","Sat, holidays: 17:30 - 24:00"],"phoneNumbers":[{"phoneType":null,"number":"08-9750700","extension":null}],"location":{"lat":31.9043721,"lon":35.00399180000001}},{"centreType":"Clinics","area":"Tel-Aviv","name":"Terem","address":"Jabotinsky 160,Bnei Brak","openingHours":["24 hour sevice"],"phoneNumbers":[{"phoneType":null,"number":"1-599-520-520","extension":null}],"location":{"lat":32.0926419,"lon":34.8381474}},{"centreType":"Doctors","area":"Tel-Aviv","name":"Dr. Tuvia Brondwin","address":"King David 6, Tel Aviv","openingHours":[""],"phoneNumbers":[{"phoneType":null,"number":"03-696-6837","extension":null}],"location":{"lat":32.066158,"lon":34.777819}},{"centreType":"Doctors","area":"Tel-Aviv","name":"Dr. binyamin Lilov","address":"CMC Medical Center,Pinchas Lavon 18, Netanya","openingHours":[""],"phoneNumbers":[{"phoneType":null,"number":"09-865-7777","extension":null}],"location":{"lat":32.321458,"lon":34.853196}},{"centreType":"Pharmacies","area":"Tel-Aviv","name":"Moshenzon","address":"Ben Yehuda 83, Tel Aviv","openingHours":[""],"phoneNumbers":[{"phoneType":null,"number":"03-522-2481","extension":null}],"location":{"lat":32.0819084,"lon":34.7708944}},{"centreType":"Pharmacies","area":"Tel-Aviv","name":"Geva","address":"Shaar Hagai 14, Netanya","openingHours":[""],"phoneNumbers":[{"phoneType":null,"number":"09-882-2695","extension":null}],"location":{"lat":32.3272518,"lon":34.8574196}},{"centreType":"Clinics","area":"North","name":"Bikur Rofeh","address":"Tzahal 1, Hadera","openingHours":["Sun - Thur: 19:30 - 23:00","Fri, hoiday eve: 17:00 - 23:00","Sat, holidays: 09:00 - 13:00","17:00 - 13:00"],"phoneNumbers":[{"phoneType":null,"number":"04- 6225030","extension":null}],"location":{"lat":0,"lon":0}},{"centreType":"Clinics","area":"North","name":"Bikur Rofeh","address":"Derech Ako Haifa 194, kiryat byalik","openingHours":["Sun,Mon, Tue, Thur: 19:30 - 24:00","Wed: 15:00 - 24:00","Fri, hoiday eve: 15:00 - 24:00","Sat, holidays: 09:00 - 24:00"],"phoneNumbers":[{"phoneType":null,"number":"04-8747022","extension":null}],"location":{"lat":0,"lon":0}},{"centreType":"Clinics","area":"North","name":"Bikur Rofeh","address":"Haoranim 44, Yokneam Ilit","openingHours":["Sun,Mon, Tue, Thur: 19:00 - 23:00","Wed: 17:00 - 23:00","Fri, hoiday eve: 18:00 - 23:00","Sat, holidays: 10:00 - 14:00","18:00 - 23:00"],"phoneNumbers":[{"phoneType":null,"number":"04-9591358","extension":null}],"location":{"lat":32.6524994,"lon":35.0992183}},{"centreType":"Clinics","area":"North","name":"Bikur Rofeh","address":"Dereh Yafo 145, Haifa","openingHours":["Sun - Thur: 17:00 - 03:00","Fri, hoiday eve: 16:00 - 24:00","Sat, holidays: 10:00 - 03:00"],"phoneNumbers":[{"phoneType":null,"number":"04-8507350","extension":null}],"location":{"lat":32.8272873,"lon":34.9864262}},{"centreType":"Clinics","area":"North","name":"Bikur Rofeh","address":"Yehoshua Henkin 15, Afula","openingHours":["Sun: 18:00 - 24:00","Mon- Thur: 18:30 - 24:00","Fri, hoiday eve: 09:00 - 14:00","17:00 - 23:00","Sat, holidays: 10:00 - 14:00","17:30 - 24:00"],"phoneNumbers":[{"phoneType":null,"number":"04-6403348","extension":null}],"location":{"lat":32.6043939,"lon":35.2936068}},{"centreType":"Clinics","area":"North","name":"Bikur Rofeh","address":"Yerushalayim Habira 27, Beit Shean","openingHours":["Sun - Sat : 19:00 - 23:00"],"phoneNumbers":[{"phoneType":null,"number":"*6101","extension":null}],"location":{"lat":32.496881,"lon":35.497877}},{"centreType":"Clinics","area":"North","name":"Bikur Rofeh","address":"Hertzel 44, Nahariya","openingHours":["Sun - Thur: 17:30 - 01:00","Fri, hoiday eve:12:00 - 24:00","Sat, holidays: 10:00 - 01:00"],"phoneNumbers":[{"phoneType":null,"number":"04-6641014","extension":null}],"location":{"lat":33.0094999,"lon":35.0967941}},{"centreType":"Clinics","area":"North","name":"Bikur Rofeh","address":"Sderot Kakal 99, Carmiel","openingHours":["Sun - Thur: 19:00 - 23:30","Fri, hoiday eve:16:00 - 23:00","Sat, holidays: 10:00 - 14:00","17:00 - 23:30"],"phoneNumbers":[{"phoneType":null,"number":"04-9581253","extension":null}],"location":{"lat":32.9093535,"lon":35.2928663}},{"centreType":"Clinics","area":"North","name":"Bikur Rofeh","address":"Harav Kook 88, Maalot","openingHours":["Sun,Mon, Tue, Thur: 19:00 - 24:00","Wed: 16:00 - 24:00","Fri, hoiday eve:18:00 - 24:00","Sat, holidays: 10:00 - 12:00","19:00 - 24:00"],"phoneNumbers":[{"phoneType":null,"number":"04-9977850","extension":null}],"location":{"lat":33.01506620000001,"lon":35.2811155}},{"centreType":"Clinics","area":"North","name":"Marlam","address":"Hakishon 1, Tiberias","openingHours":["Sun - Thur : 19:00 - 24:00","Fri, Holiday eve:14:00 - 24:00","Sat, Holidays: 10:00 - 24:00"],"phoneNumbers":[{"phoneType":null,"number":"04-671-7611","extension":null}],"location":{"lat":32.78568610000001,"lon":35.5406258}},{"centreType":"Doctors","area":"North","name":"Dr. Yerichover","address":"Moshav Hispin, Golan","openingHours":[""],"phoneNumbers":[{"phoneType":null,"number":"04-664-6600","extension":null},{"phoneType":null,"number":"050-626-4475","extension":null},{"phoneType":null,"number":"04-676-3701 (Home)","extension":null}],"location":{"lat":32.845057,"lon":35.788748}},{"centreType":"Doctors","area":"North","name":"Dr. Amos Riter, Dr.Sharon Schwertz","address":"Yotam 6, Haifa","openingHours":[""],"phoneNumbers":[{"phoneType":null,"number":"04-834-0280","extension":null}],"location":{"lat":32.7907382,"lon":34.9871135}},{"centreType":"Doctors","area":"North","name":"Dr. Shimon Darmon","address":"Yuspetal 158, Tsfat","openingHours":[""],"phoneNumbers":[{"phoneType":null,"number":"Clinic- 04-847-3222","extension":null},{"phoneType":null,"number":"Home- 04-699-9908","extension":null},{"phoneType":null,"number":"Cell-050-884-4771","extension":null}],"location":{"lat":32.964648,"lon":35.495997}},{"centreType":"Doctors","area":"North","name":"Dr. Yitzchak Stern","address":"Hachsharat Hayeshuv 89, Tsfat","openingHours":[""],"phoneNumbers":[{"phoneType":null,"number":"04-697-1896","extension":null}],"location":{"lat":32.961527,"lon":35.488421}},{"centreType":"Pharmacies","area":"North","name":"Mironi","address":"Hertzel 29, Haifa","openingHours":[""],"phoneNumbers":[{"phoneType":null,"number":"04-866-3596","extension":null}],"location":{"lat":32.8108439,"lon":34.9982002}},{"centreType":"Pharmacies","area":"North","name":"Golan","address":"Jerusalem 39, Tsfat","openingHours":[""],"phoneNumbers":[{"phoneType":null,"number":"04-692-0472","extension":null}],"location":{"lat":32.9684273,"lon":35.4934936}},{"centreType":"Pharmacies","area":"North","name":"Schwartz","address":"Hagalil 7, Tiberias","openingHours":[""],"phoneNumbers":[{"phoneType":null,"number":"04-672-0994","extension":null}],"location":{"lat":32.7874835,"lon":35.5396507}},{"centreType":"Clinics","area":"South","name":"Bikur Rofeh","address":"Yitzhak Ben- Tzvi 9, Beer Sheva","openingHours":["Sun, Tue, Thur: 17:00 - 03:00","Mon, Wed: 16:00 - 03:00","Fri, hoiday eve: 09:00 - 01:00","Sat, holidays: 09:00 - 03:00"],"phoneNumbers":[{"phoneType":null,"number":"08-665-5559","extension":null}],"location":{"lat":31.2440759,"lon":34.7989405}},{"centreType":"Clinics","area":"South","name":"Bikur Rofeh","address":"Balfur 14, Ashdod","openingHours":["Sun, Tue, Thur: 18:30 - 03:00","Mon, Wed: 18:00 - 03:00","Fri, hoiday eve: 13:00 - 03:00","Sat, holidays: 09:00 - 03:00"],"phoneNumbers":[{"phoneType":null,"number":"08-8668528","extension":null}],"location":{"lat":31.7979653,"lon":34.6488191}},{"centreType":"Clinics","area":"South","name":"Bikur Rofeh","address":"Nahal Hava 1, Mitzpe Ramon","openingHours":["Sun - Thur: 19:00 - 23:00","Fri, hoiday eve:18:00 - 22:00","Sat, holidays: 19:00 - 23:00"],"phoneNumbers":[{"phoneType":null,"number":"08-6413585","extension":null}],"location":{"lat":30.6112006,"lon":34.804082}},{"centreType":"Clinics","area":"South","name":"Bikur Rofeh","address":"Peten 1, Eilat","openingHours":["Sun - Thur: 19:00 - 23:00","Fri, hoiday eve: 09:00 - 14:00","19:00 - 23:00","Sat, holidays: 10:00 - 14:00","20:00 - 24:00"],"phoneNumbers":[{"phoneType":null,"number":"08-6371222","extension":null}],"location":{"lat":29.557073,"lon":34.9540874}},{"centreType":"Clinics","area":"South","name":"Bikur Rofeh","address":"Sderot Duani 46, Yavneh","openingHours":["Sun - Thur: 20:00 - 23:00","Fri, hoiday eve: 20:00 - 24:00","Sat, holidays: 10:00 - 14:00","20:00 - 24:00"],"phoneNumbers":[{"phoneType":null,"number":"08-9437478","extension":null}],"location":{"lat":0,"lon":0}},{"centreType":"Clinics","area":"South","name":"Bikur Rofeh","address":"Hertzel 30, Ashkelon","openingHours":["Sun, Tue, Thur: 20:00 - 24:00","Mon, Wed: 16:00 - 24:00","Fri, hoiday eve: 16:00 - 24:00","Sat, holidays: 10:00 - 24:00"],"phoneNumbers":[{"phoneType":null,"number":"08-6728989","extension":null}],"location":{"lat":31.6639305,"lon":34.5866181}},{"centreType":"Doctors","area":"South","name":"Dr. Meir Weisnovitz","address":"Savyon 12, Eilat","openingHours":[""],"phoneNumbers":[{"phoneType":null,"number":"08-632-6138","extension":null}],"location":{"lat":29.5505814,"lon":34.941727}},{"centreType":"Pharmacies","area":"South","name":"Michlin","address":"Mercaz Rechter, Eilat","openingHours":[""],"phoneNumbers":[{"phoneType":null,"number":"08-637-2434","extension":null}],"location":{"lat":29.557669,"lon":34.951925}}]
